City,Lat,Lng,Max Temp,Humidity,Cloudiness,Wind Speed,Country,Date
zhigansk,66.7697,123.3711,-35.84,82,100,18.57,RU,1609967452
ust-nera,64.5667,143.2,-28.23,75,50,4.79,RU,1609967389
talaya,61.3833,152.75,-28.17,82,100,1.77,RU,1609967355
chegdomyn,51.1167,133.0167,-26.66,84,93,0.85,RU,1609967411
taksimo,56.3444,114.8794,-26.0,78,93,1.43,RU,1609967426
aklavik,68.2191,-135.0107,-25.6,74,20,2.24,CA,1609967457
belaya gora,68.5333,146.4167,-25.46,83,0,5.64,RU,1609967325
omsukchan,62.5333,155.8,-25.26,84,95,3.0,RU,1609967408
kungurtug,50.5994,97.5228,-24.48,81,99,0.47,RU,1609967333
tuktoyaktuk,69.4541,-133.0374,-23.8,74,20,4.7,CA,1609967338
arkhara,49.4212,130.0842,-23.8,87,98,4.68,RU,1609967435
ayan,56.45,138.1667,-23.21,73,90,12.59,RU,1609967372
vysokogornyy,50.1167,139.15,-22.59,83,100,2.28,RU,1609967410
okhotsk,59.3833,143.3,-21.24,78,91,12.95,RU,1609967391
parabel,58.6978,81.4825,-21.15,84,0,4.36,RU,1609967351
srednekolymsk,67.45,153.6833,-21.1,86,86,5.88,RU,1609967438
deputatskiy,69.3,139.9,-20.9,85,52,5.53,RU,1609967321
bilibino,68.0546,166.4372,-20.22,84,100,3.44,RU,1609967453
malinovoye ozero,51.6753,79.7825,-19.7,87,100,2.39,RU,1609967380
teguldet,57.3064,88.1667,-19.68,83,99,3.42,RU,1609967379
atbasar,51.8,68.3333,-19.62,86,0,7.34,KZ,1609967446
tilichiki,60.4667,166.1,-18.98,88,1,9.13,RU,1609967434
tiksi,71.6872,128.8694,-18.74,85,100,33.02,RU,1609967358
kysyl-syr,63.8986,122.7617,-18.62,87,100,5.77,RU,1609967360
mama,58.3106,112.8986,-17.5,80,100,4.09,RU,1609967383
nyagan,62.1406,65.3936,-16.89,87,0,5.01,RU,1609967440
kuminskiy,58.6667,66.5667,-16.8,88,48,5.01,RU,1609967419
anadyr,64.75,177.4833,-16.6,75,20,8.95,RU,1609967345
krasnoturansk,54.3186,91.5639,-16.6,75,100,1.92,RU,1609967319
okha,53.5739,142.9478,-16.58,87,97,15.37,RU,1609967417
derzhavinsk,51.1,66.3167,-16.46,86,0,8.9,KZ,1609967449
krasnoselkup,65.7,82.4667,-16.46,86,52,13.35,RU,1609967420
salym,60.0625,71.4789,-16.11,85,1,4.81,RU,1609967400
krasnyy chikoy,50.3643,108.7512,-16.08,84,100,4.83,RU,1609967442
chokurdakh,70.6333,147.9167,-15.99,89,98,11.54,RU,1609967345
beringovskiy,63.05,179.3167,-15.72,86,16,8.81,RU,1609967393
teya,60.3778,92.6267,-15.7,80,44,2.19,RU,1609967440
alekseyevsk,57.8406,108.3492,-15.32,85,100,10.96,RU,1609967447
solnechnyy,50.7214,136.6319,-15.18,86,100,0.27,RU,1609967374
norman wells,65.282,-126.8329,-14.8,68,75,3.36,CA,1609967324
iqaluit,63.7506,-68.5145,-14.8,75,75,25.28,CA,1609967316
clyde river,70.4692,-68.5914,-14.8,75,90,25.28,CA,1609967334
talnakh,69.4865,88.3972,-14.8,75,90,33.55,RU,1609967334
cherskiy,68.75,161.3,-14.4,89,100,8.9,RU,1609967327
lavrentiya,65.5833,-171.0,-14.01,84,5,7.85,RU,1609967321
vostok,46.4856,135.8833,-13.79,90,100,1.48,RU,1609967385
mandalgovi,45.7625,106.2708,-13.61,81,0,16.55,MN,1609967317
pangody,65.85,74.4859,-13.07,86,24,17.02,RU,1609967337
qaanaaq,77.484,-69.3632,-13.04,79,25,3.69,GL,1609967333
tigil,57.8,158.6667,-13.04,87,97,1.34,RU,1609967315
taonan,45.3333,122.7833,-12.93,63,0,9.57,CN,1609967243
gubkinskiy,64.434,76.5026,-12.91,83,0,15.79,RU,1609967386
shar,49.5886,81.0453,-12.28,79,100,2.91,KZ,1609967424
tazovskiy,67.4667,78.7,-12.15,89,100,14.9,RU,1609967368
tashtagol,52.7657,87.8894,-11.76,83,2,4.23,RU,1609967436
baykit,61.67,96.37,-11.45,85,97,5.66,RU,1609967381
urumqi,43.801,87.6005,-11.2,83,0,1.52,CN,1609967401
kedrovyy,56.1667,91.8167,-11.2,83,0,2.24,RU,1609967410
yar-sale,66.8333,70.8333,-10.97,89,93,19.17,RU,1609967371
dashitou,43.3067,128.5114,-10.84,84,91,12.35,CN,1609967366
evensk,61.95,159.2333,-10.7,79,0,3.42,RU,1609967450
arman,59.7,150.1667,-10.57,80,40,7.11,RU,1609967421
nyurba,63.2842,118.3319,-10.12,89,100,10.89,RU,1609967358
troitskoye,52.9821,84.6757,-9.96,86,0,4.38,RU,1609967395
pangnirtung,66.1451,-65.7125,-9.4,76,75,17.22,CA,1609967357
barrow,71.2906,-156.7887,-9.4,76,90,6.93,US,1609967323
pevek,69.7008,170.3133,-8.14,91,100,15.64,RU,1609967341
zaysan,47.4667,84.8667,-7.76,81,100,0.04,KZ,1609967386
linjiang,41.8069,126.9078,-6.5,77,100,7.45,CN,1609967377
leningradskiy,69.3833,178.4167,-6.11,89,100,11.59,RU,1609967400
provideniya,64.3833,-173.3,-5.98,82,9,5.39,RU,1609967316
poronaysk,49.2167,143.1167,-5.13,85,98,4.74,RU,1609967382
fort nelson,58.8053,-122.7002,-4.0,83,75,4.7,CA,1609967348
jiuquan,39.7432,98.5174,-3.84,79,93,1.52,CN,1609967420
nyrob,60.733,56.7202,-3.28,90,0,3.89,RU,1609967432
kosa,59.9445,54.9977,-2.18,92,99,8.48,RU,1609967429
yerbogachen,61.2767,108.0108,-0.22,92,100,8.7,RU,1609967316
khatanga,71.9667,102.5,0.0,91,100,23.2,RU,1609967323
anju,39.6178,125.6647,1.13,70,0,16.28,KP,1609967380
mezen,65.8522,44.24,2.84,94,58,4.59,RU,1609967443
orsk,51.2049,58.5668,3.2,77,90,4.47,RU,1609967393
vanavara,60.34,102.2797,3.63,92,100,8.59,RU,1609967338
zilair,52.2332,57.4392,3.72,92,78,3.31,RU,1609967415
tirlyanskiy,54.2109,58.5806,3.72,92,100,2.57,RU,1609967442
vizinga,61.0749,50.1031,4.15,94,100,7.0,RU,1609967430
suksun,57.1431,57.3949,5.65,94,100,9.75,RU,1609967457
shubarkuduk,49.1447,56.4872,6.21,87,100,8.28,KZ,1609967349
oktyabrskiy,54.4815,53.471,6.6,88,100,9.82,RU,1609967413
seoul,37.5683,126.9778,6.8,54,40,5.82,KR,1609967423
petropavlovsk-kamchatskiy,53.0452,158.6483,6.8,77,77,4.47,RU,1609967325
college,64.8569,-147.8028,7.0,69,75,4.7,US,1609967407
saskylakh,71.9167,114.0833,8.55,92,100,29.21,RU,1609967345
kuusamo,65.9667,29.1833,8.6,84,90,1.12,FI,1609967367
zhaoyuan,37.3592,120.3964,9.0,99,99,3.0,CN,1609967363
upernavik,72.7868,-56.1549,9.36,88,100,15.32,GL,1609967385
yuryevets,57.3201,43.1041,9.5,97,99,2.89,RU,1609967446
morki,56.4303,48.9947,10.22,95,100,9.13,RU,1609967320
aykhal,66.0,111.5,10.4,92,90,8.95,RU,1609967420
aksu,41.1231,80.2644,10.74,87,23,3.11,CN,1609967449
dongkan,33.9997,119.8308,11.3,61,0,19.13,CN,1609967389
lovozero,68.005,35.0117,12.06,91,0,1.21,RU,1609967371
zhanakorgan,43.9098,67.2495,12.94,78,100,4.74,KZ,1609967326
severo-kurilsk,50.6789,156.125,13.82,85,40,9.42,RU,1609967392
korla,41.7597,86.1469,13.86,82,100,2.89,CN,1609967409
narsaq,60.9167,-46.05,14.0,66,75,5.82,GL,1609967330
moose factory,51.2585,-80.6094,14.0,85,90,6.93,CA,1609967380
moba,33.2288,105.0179,15.01,68,100,6.31,CN,1609967347
tatishchevo,51.6703,45.5953,15.01,84,100,3.0,RU,1609967440
ostrovnoy,68.0531,39.5131,15.26,94,94,16.08,RU,1609967448
hearst,49.6835,-83.6665,15.8,78,100,3.36,CA,1609967428
matagami,49.7502,-77.6328,15.8,100,90,11.41,CA,1609967456
mombetsu,44.3525,143.3525,15.98,88,100,6.93,JP,1609967353
makat,47.6469,53.3463,16.36,95,70,15.73,KZ,1609967398
longyearbyen,78.2186,15.6401,17.6,72,75,3.36,SJ,1609967365
shache,38.4167,77.2406,18.0,94,99,6.22,CN,1609967368
dikson,73.5069,80.5464,18.91,98,100,23.71,RU,1609967358
qaqortoq,60.7167,-46.0333,19.4,52,75,2.24,GL,1609967447
samarkand,39.6542,66.9597,19.4,79,90,6.93,UZ,1609967394
orumiyeh,37.5527,45.0761,19.4,92,27,4.7,IR,1609967397
thompson,55.7435,-97.8558,19.4,92,90,2.24,CA,1609967322
yellowknife,62.456,-114.3525,19.4,92,90,12.75,CA,1609967317
chaplygin,53.2432,39.9629,21.0,87,100,7.09,RU,1609967406
birjand,32.8663,59.2211,21.2,57,0,4.7,IR,1609967448
lakselv,70.0513,24.9718,21.2,79,0,11.41,NO,1609967402
la ronge,55.1001,-105.2842,21.2,85,67,6.93,CA,1609967436
zarya,55.7553,38.0958,21.2,92,90,6.71,RU,1609967448
leninskiy,54.2781,37.4558,22.01,98,100,4.0,RU,1609967394
nahrin,36.0649,69.1334,22.32,92,70,1.88,AF,1609967451
haines junction,60.7522,-137.5108,22.48,94,90,1.95,CA,1609967456
tasiilaq,65.6145,-37.6368,23.0,45,100,4.7,GL,1609967366
halden,59.1226,11.3871,23.0,79,100,9.17,NO,1609967441
flin flon,54.7682,-101.865,23.0,85,90,4.7,CA,1609967322
vardo,70.3705,31.1107,23.0,92,40,39.15,NO,1609967454
akureyri,65.6835,-18.0878,23.0,92,90,4.16,IS,1609967454
husavik,66.0449,-17.3389,23.0,92,90,10.29,IS,1609967376
chapais,49.7834,-74.8492,23.0,92,90,11.41,CA,1609967375
hofn,64.2539,-15.2082,23.31,86,0,20.89,IS,1609967342
chardara,41.2547,67.9692,23.85,84,0,8.3,KZ,1609967405
bollnas,61.3482,16.3946,24.01,92,97,4.16,SE,1609967430
timra,62.487,17.3257,24.01,92,99,5.82,SE,1609967396
beyneu,45.3167,55.2,24.22,96,0,14.52,KZ,1609967428
olafsvik,64.8945,-23.7142,24.71,89,47,11.79,IS,1609967339
prince albert,53.2001,-105.7677,24.8,68,90,5.82,CA,1609967334
noshiro,40.2039,140.0242,25.41,96,100,9.78,JP,1609967361
chippewa falls,44.9369,-91.3929,26.01,85,90,5.82,US,1609967387
parfino,57.9731,31.6481,26.02,97,100,5.55,RU,1609967433
whitehorse,60.7161,-135.0538,26.6,79,75,11.41,CA,1609967347
sioux lookout,50.1001,-91.917,26.6,86,75,8.05,CA,1609967429
nikolskoye,59.7035,30.7861,26.6,86,90,13.42,RU,1609967360
yichang,30.7144,111.2847,27.0,78,100,5.01,CN,1609967390
paamiut,61.994,-49.6678,28.18,90,100,8.77,GL,1609967435
ilulissat,69.2167,-51.1,28.4,86,90,18.34,GL,1609967349
vestmannaeyjar,63.4427,-20.2734,28.44,89,0,18.34,IS,1609967384
nanortalik,60.1432,-45.2371,29.03,87,100,6.67,GL,1609967394
vila,42.0304,-8.1588,30.0,91,0,1.99,PT,1609967407
sigmaringen,48.0833,9.2167,30.0,94,100,5.99,DE,1609967402
hailey,43.5196,-114.3153,30.2,58,40,9.17,US,1609967412
saskatoon,52.1168,-106.6345,30.2,74,90,14.99,CA,1609967100
tunceli,39.1083,39.5471,30.2,92,40,4.7,TR,1609967355
saint john,45.2727,-66.0677,30.2,92,90,16.11,CA,1609967261
sabzevar,36.2126,57.6819,30.56,82,0,4.25,IR,1609967390
jamestown,42.097,-79.2353,30.99,86,90,13.87,US,1609967102
pishin,30.5803,66.9961,32.0,81,0,3.62,PK,1609967409
roma,43.2128,-75.4557,32.0,86,90,10.29,US,1609967370
broome,42.2506,-75.833,32.0,86,90,14.99,US,1609967383
kjollefjord,70.9457,27.3465,32.0,90,0,28.86,NO,1609967315
salamanca,40.8333,-6.0,32.0,90,48,10.07,ES,1609967346
krasnyy yar,46.5331,48.3456,32.0,90,75,17.9,RU,1609967399
bethel,41.3712,-73.414,33.01,73,0,3.0,US,1609967424
perpignan,42.75,2.75,33.01,94,0,4.7,FR,1609967320
tabor,49.4144,14.6578,33.01,97,100,3.83,CZ,1609967386
saint-francois,46.4154,3.9054,33.01,99,90,3.36,FR,1609967367
drabiv,49.963,32.1529,33.06,95,51,5.21,UA,1609967385
pershotravneve,51.3929,28.8684,33.82,97,90,5.7,UA,1609967427
hotaka,36.3396,137.8825,34.0,52,88,8.99,JP,1609967419
albany,42.6001,-73.9662,34.0,72,80,13.0,US,1609967321
tottori,35.5,134.2333,34.43,86,100,11.07,JP,1609967453
saint anthony,45.0205,-93.218,35.01,68,20,4.7,US,1609967377
kushima,31.4583,131.2333,35.01,69,94,8.99,JP,1609967369
norden,53.6,7.2,35.01,85,100,1.01,DE,1609967414
bose,45.4612,8.0137,35.01,95,0,5.21,IT,1609967326
sarreguemines,49.0833,7.3333,35.01,99,75,3.36,FR,1609967373
shingu,33.7333,135.9833,35.17,84,100,4.88,JP,1609967442
jumla,29.2747,82.1838,35.49,70,23,3.98,NP,1609967340
foam lake,51.65,-103.5343,35.6,55,81,18.34,CA,1609967443
smithers,54.7804,-127.1743,35.6,69,75,11.41,CA,1609967373
aix-les-bains,45.6834,5.9224,35.6,74,90,3.36,FR,1609967409
klaksvik,62.2266,-6.589,35.6,76,74,9.17,FO,1609967372
havoysund,70.9963,24.6622,35.6,80,0,28.86,NO,1609967390
hasaki,35.7333,140.8333,35.6,80,75,4.7,JP,1609967330
goderich,43.7501,-81.7165,35.6,80,100,3.36,CA,1609967343
plouzane,48.3833,-4.6167,35.6,86,76,2.24,FR,1609967342
vestmanna,62.1564,-7.1664,35.6,86,76,9.17,FO,1609967362
tobermory,45.2501,-81.6665,35.6,93,59,12.75,CA,1609967408
izmit,40.7669,29.9169,35.6,100,0,2.24,TR,1609967455
toronto,43.7001,-79.4163,36.0,64,2,8.77,CA,1609967322
berlin,52.5244,13.4105,36.0,94,75,9.17,DE,1609967144
vanderhoof,54.0166,-124.0198,36.34,80,0,5.26,CA,1609967421
cherniyiv,48.8566,24.7139,36.52,82,100,2.06,UA,1609967428
asau,46.4333,26.4,37.0,66,100,4.21,RO,1609967344
jiangyou,31.7667,104.7167,37.0,70,100,0.83,CN,1609967422
geneva,41.8875,-88.3054,37.0,74,90,3.36,US,1609967412
bud,39.447,-86.1758,37.0,74,100,4.72,US,1609967356
sudova vyshnya,49.7889,23.3722,37.0,93,75,4.47,UA,1609967350
palmer,42.1584,-72.3287,37.4,51,20,12.75,US,1609967446
kodiak,57.79,-152.4072,37.4,93,90,18.34,US,1609967317
stromness,58.965,-3.296,37.4,93,100,16.11,GB,1609967425
bonavista,48.6499,-53.1147,37.4,100,100,12.95,CA,1609967459
afsin,38.2477,36.914,37.67,78,100,1.1,TR,1609967446
uji,34.8833,135.8,37.99,43,99,4.54,JP,1609967439
hamilton,39.1834,-84.5333,37.99,59,90,6.93,US,1609967093
cadillac,44.2519,-85.4012,37.99,69,90,5.82,US,1609967301
saint-augustin,51.226,-58.6502,38.16,90,100,13.18,CA,1609967364
shimoda,34.6667,138.95,39.0,58,100,1.01,JP,1609967445
andenes,69.3143,16.1194,39.0,86,0,9.17,NO,1609967408
tineo,43.3376,-6.4145,39.0,93,40,6.93,ES,1609967333
gravelbourg,49.8834,-106.5512,39.2,48,0,13.87,CA,1609967336
oksfjord,70.2396,22.3479,39.2,84,0,12.75,NO,1609967415
ozieri,40.586,9.0012,39.2,93,0,3.36,IT,1609967390
margate,51.3813,1.3862,39.99,77,100,5.01,GB,1609967447
burgeo,47.6167,-57.6152,40.82,92,99,9.31,CA,1609967336
hirado,33.3597,129.5531,41.0,68,100,3.0,JP,1609967393
truro,50.2653,-5.0544,41.0,85,86,6.93,GB,1609967326
brae,60.3964,-1.353,41.0,86,100,17.22,GB,1609967408
torbay,47.6666,-52.7314,41.0,100,90,6.93,CA,1609967347
phek,25.6667,94.5,41.76,100,8,0.85,IN,1609967458
oia,40.5426,-8.5386,42.01,67,0,5.39,PT,1609967362
porgera,-5.4667,143.2,42.04,100,100,1.48,PG,1609967319
gallup,35.5281,-108.7426,42.8,26,1,5.82,US,1609967370
virginia beach,36.8529,-75.978,44.01,64,0,4.0,US,1609967291
iranshahr,27.2025,60.6848,44.6,22,0,6.93,IR,1609967389
sitka,57.0531,-135.33,44.6,76,75,13.87,US,1609967369
port hardy,50.6996,-127.4199,44.6,81,75,2.24,CA,1609967400
rute,37.3269,-4.3683,45.0,84,100,6.02,ES,1609967425
lata,40.1629,-8.3327,45.0,86,0,1.12,PT,1609967363
jackson,42.4165,-122.8345,45.0,86,90,5.82,US,1609967397
tall kayf,37.0833,41.0667,46.4,42,0,11.41,TR,1609967345
rapid valley,44.0625,-103.1463,46.99,26,1,11.41,US,1609967384
bat khela,34.6167,71.9714,47.59,52,0,5.57,PK,1609967342
havelock,34.8791,-76.9013,48.2,49,75,17.22,US,1609967282
taman,45.2117,36.7161,48.2,81,3,8.95,RU,1609967415
faro,37.0194,-7.9322,48.2,93,20,14.99,PT,1609967243
potosi,-19.5836,-65.7531,49.75,71,91,7.63,BO,1609967388
kazerun,29.6195,51.6541,49.78,49,0,3.76,IR,1609967327
sun valley,39.5963,-119.776,50.0,64,75,4.7,US,1609967396
portland,45.5234,-122.6762,50.0,93,90,6.93,US,1609967002
sulina,45.1559,29.6536,50.02,86,100,15.08,RO,1609967434
jand,33.4299,72.0193,51.01,59,0,2.08,PK,1609967351
esperance,-33.8667,121.9,51.8,81,0,6.93,AU,1609967322
bikaner,28.0167,73.3,52.12,80,0,4.99,IN,1609967328
marshall,34.3834,-86.3333,53.01,37,1,3.36,US,1609967375
fortuna,40.5982,-124.1573,53.01,93,90,16.11,US,1609967348
avera,33.194,-82.5271,53.6,49,1,4.7,US,1609967334
ponta delgada,37.7333,-25.6667,53.6,66,20,25.28,PT,1609967430
ibra,22.6906,58.5334,53.74,41,0,5.48,OM,1609967404
saint george,37.1041,-113.5841,54.0,31,1,3.36,US,1609967333
new norfolk,-42.7826,147.0587,54.0,70,0,1.81,AU,1609967335
laguna,38.421,-121.4238,54.0,87,75,6.93,US,1609967460
hobart,-42.8794,147.3294,55.0,76,20,9.17,AU,1609967170
west odessa,31.8424,-102.4988,55.4,30,1,13.87,US,1609967444
ribeira grande,38.5167,-28.7,55.4,62,40,25.28,PT,1609967370
dayong,25.0209,118.2898,55.4,71,20,8.95,CN,1609967427
kardamaina,36.7814,27.1425,55.4,76,20,3.36,GR,1609967378
nador,35.174,-2.9287,55.4,76,90,11.41,MA,1609967335
mount gambier,-37.8333,140.7667,55.4,76,90,11.41,AU,1609967363
alexander city,32.944,-85.9539,55.99,34,1,2.46,US,1609967337
lagoa,39.05,-27.9833,56.93,68,0,32.14,PT,1609967402
megalopoli,37.4011,22.1422,57.0,93,71,1.12,GR,1609967436
naze,28.3667,129.4833,57.2,82,75,19.46,JP,1609967361
abha,18.2164,42.5053,57.2,87,0,6.93,SA,1609967351
aja,30.9415,31.2915,57.24,89,1,3.47,EG,1609967381
te anau,-45.4167,167.7167,57.65,88,100,1.63,NZ,1609967350
salinas,36.6777,-121.6555,57.99,62,1,8.05,US,1609967223
codrington,-38.2667,141.9667,57.99,81,31,12.1,AU,1609967458
burnie,-41.0667,145.9167,57.99,87,89,1.01,AU,1609967341
matucana,-11.85,-76.4,58.1,63,100,7.78,PE,1609967416
san jose,37.3394,-121.895,59.0,54,75,6.93,US,1609967287
cefalu,38.0386,14.0229,59.0,56,93,9.22,IT,1609967460
pacific grove,36.6177,-121.9166,59.0,58,1,8.05,US,1609967416
punta arenas,-53.15,-70.9167,59.0,58,75,16.11,CL,1609967247
alice springs,-23.7,133.8833,59.0,62,0,3.36,AU,1609967417
lompoc,34.6391,-120.4579,59.0,67,1,11.41,US,1609967364
buraydah,26.326,43.975,59.0,67,20,12.75,SA,1609967284
haimen,23.1935,116.6142,59.0,67,75,4.47,CN,1609967422
dunedin,-45.8742,170.5036,59.36,93,100,0.96,NZ,1609967319
ermelo,-26.5333,29.9833,59.65,96,98,10.0,ZA,1609967398
kaitangata,-46.2817,169.8464,59.99,95,100,3.71,NZ,1609967339
mataura,-46.1927,168.8643,60.01,94,100,2.04,NZ,1609967320
tuatapere,-46.1333,167.6833,60.01,94,100,3.44,NZ,1609967359
bluff,-46.6,168.3333,60.01,94,100,4.99,NZ,1609967328
bairnsdale,-37.8333,147.6167,60.01,96,72,1.99,AU,1609967413
myitkyina,25.3833,97.4,60.06,75,19,2.28,MM,1609967357
port lincoln,-34.7333,135.8667,60.28,76,75,14.58,AU,1609967358
pasni,25.2631,63.471,60.67,39,0,32.97,PK,1609967386
lebu,-37.6167,-73.65,60.73,76,0,17.94,CL,1609967343
ruwi,23.5996,58.5507,60.8,51,0,2.24,OM,1609967451
ponta do sol,32.6667,-17.1,60.8,100,75,6.93,PT,1609967328
victoria,22.2855,114.1577,61.0,79,49,1.99,HK,1609967163
airai,-8.9266,125.4092,61.41,100,100,1.54,TL,1609967380
bardiyah,31.7561,25.0865,61.81,84,7,8.19,LY,1609967324
misratah,32.3754,15.0925,61.93,61,70,11.72,LY,1609967345
tiznit,29.5833,-9.5,62.13,81,100,10.09,MA,1609967417
ojinaga,29.5667,-104.4167,62.6,25,1,12.75,MX,1609967402
ushuaia,-54.8,-68.3,62.6,45,75,13.87,AR,1609967202
ormara,25.2088,64.6357,63.12,34,0,17.16,PK,1609967391
tura,25.5198,90.2201,63.32,58,100,2.77,IN,1609967413
hirara,24.8,125.2833,63.34,87,100,33.98,JP,1609967402
ishigaki,24.3448,124.1572,63.7,87,100,33.8,JP,1609967461
isoka,-10.1606,32.6335,63.79,92,50,2.77,ZM,1609967384
kambove,-10.8764,26.5969,63.86,95,100,1.72,CD,1609967450
mairwa,26.2333,84.15,63.97,62,0,7.87,IN,1609967433
necochea,-38.5473,-58.7368,64.0,87,98,19.89,AR,1609967368
oranjemund,-28.55,16.4333,64.06,74,0,15.61,NA,1609967331
elat,29.5581,34.9482,64.4,59,0,6.93,IL,1609967445
coquimbo,-29.9533,-71.3436,64.4,68,20,14.99,CL,1609967431
saldanha,-33.0117,17.9442,64.4,72,0,11.41,ZA,1609967434
brandfort,-28.7001,26.4597,64.4,72,5,11.41,ZA,1609967387
qiongshan,20.0058,110.3542,64.4,100,75,8.95,CN,1609967383
odweyne,9.4092,45.064,64.49,27,0,15.5,SO,1609967459
bealanana,-14.55,48.7333,64.58,90,20,0.83,MG,1609967424
flinders,-34.5833,150.8552,64.99,79,34,5.99,AU,1609967418
batemans bay,-35.7167,150.1833,64.99,87,61,1.01,AU,1609967379
okato,-39.2,173.8833,64.99,95,100,3.0,NZ,1609967435
pleasant point,-44.2667,171.1333,64.99,96,63,3.94,NZ,1609967318
san quintin,30.4833,-115.95,65.62,56,1,8.72,MX,1609967456
likasi,-10.9814,26.7333,65.71,95,100,4.0,CD,1609967360
gat,31.61,34.7642,66.0,54,63,1.99,IL,1609967339
isla vista,34.4133,-119.861,66.0,67,1,3.36,US,1609967336
pismo beach,35.1428,-120.6413,66.0,71,1,3.36,US,1609967411
kruisfontein,-34.0033,24.7314,66.0,89,1,1.01,ZA,1609967359
saurimo,-9.6608,20.3916,66.06,95,99,3.69,AO,1609967382
coihaique,-45.5752,-72.0662,66.2,59,90,6.93,CL,1609967379
doha,25.2867,51.5333,66.2,68,0,6.93,QA,1609967212
bredasdorp,-34.5322,20.0403,66.2,72,0,4.7,ZA,1609967322
kibungo,-2.1597,30.5427,66.2,88,40,1.79,RW,1609967378
port elizabeth,-33.918,25.5701,66.2,93,0,1.12,ZA,1609967263
lichinga,-13.3128,35.2406,66.2,93,0,3.36,MZ,1609967317
plettenberg bay,-34.0527,23.3716,66.27,84,3,3.33,ZA,1609967419
chauk,20.8833,94.8167,66.43,57,99,0.16,MM,1609967450
ocala,29.1872,-82.1401,66.99,36,1,2.95,US,1609967439
busselton,-33.65,115.3333,66.99,61,90,5.99,AU,1609967321
garowe,8.4054,48.4845,67.39,70,12,14.07,SO,1609967376
kaliua,-5.0606,31.7936,67.42,89,100,1.39,TZ,1609967393
nouadhibou,20.931,-17.0347,67.55,75,17,4.88,MR,1609967342
sur,22.5667,59.5289,67.59,49,0,13.94,OM,1609967343
menongue,-14.6585,17.691,67.91,64,100,1.05,AO,1609967421
yulara,-25.2406,130.9889,68.0,30,0,11.41,AU,1609967332
santa barbara,34.7333,-120.0343,68.0,48,1,9.17,US,1609967454
ancud,-41.8697,-73.8203,68.0,64,75,9.17,CL,1609967354
cape town,-33.9258,18.4232,68.0,68,0,19.46,ZA,1609967319
otane,-39.8833,176.6333,68.0,70,100,3.0,NZ,1609967431
abu dhabi,24.4667,54.3667,68.0,72,0,3.36,AE,1609967148
luderitz,-26.6481,15.1594,68.0,72,2,13.87,NA,1609967446
hermanus,-34.4187,19.2345,68.0,76,1,1.01,ZA,1609967344
moree,-29.4667,149.85,68.0,77,90,8.05,AU,1609967459
waipawa,-41.4122,175.5153,68.0,82,100,17.22,NZ,1609967404
chicama,-7.8447,-79.1469,68.0,88,75,9.17,PE,1609967427
port alfred,-33.5906,26.891,68.0,89,0,3.0,ZA,1609967327
walvis bay,-22.9575,14.5053,68.0,91,1,1.99,NA,1609967445
mar del plata,-38.0023,-57.5575,68.0,100,75,18.34,AR,1609967340
samfya,-11.3649,29.5565,68.47,92,100,3.04,ZM,1609967331
bocas del toro,9.3333,-82.25,69.01,51,12,1.01,PA,1609967400
nyaunglebin,17.95,96.7333,69.17,67,70,3.6,MM,1609967352
port shepstone,-30.7414,30.455,69.24,78,72,7.99,ZA,1609967326
osmanabad,18.1667,76.05,69.69,87,88,8.19,IN,1609967323
salalah,17.0151,54.0924,69.8,37,0,8.05,OM,1609967080
alice town,25.7167,-79.3,69.91,52,0,5.23,BS,1609967423
east london,-33.0153,27.9116,70.36,77,13,6.58,ZA,1609967172
kaputa,-8.4689,29.6619,70.41,87,99,3.38,ZM,1609967361
jagtial,18.8,78.9333,70.65,76,44,1.88,IN,1609967309
tessalit,20.1986,1.0114,70.86,21,1,10.85,ML,1609967437
ahipara,-35.1667,173.1667,70.9,65,100,5.64,NZ,1609967441
thohoyandou,-22.9456,30.485,71.53,95,100,9.95,ZA,1609967399
santa cruz de la palma,28.6835,-17.7642,71.6,64,40,8.05,ES,1609967451
kalangala,-0.3089,32.225,71.6,78,20,9.17,UG,1609967425
kasongo-lunda,-6.4667,16.8167,71.91,91,100,1.74,CD,1609967373
pidigan,17.57,120.5903,71.98,79,8,3.58,PH,1609967348
weston,26.1004,-80.3998,72.0,51,0,4.34,US,1609967191
dalby,-27.1833,151.2667,72.0,86,98,15.93,AU,1609967396
jawhar,2.7809,45.5005,72.19,76,0,17.43,SO,1609967389
nova friburgo,-22.2819,-42.5311,72.21,93,100,1.39,BR,1609967142
bosaso,11.2842,49.1816,72.23,66,0,2.46,SO,1609967456
namibe,-15.1961,12.1522,72.37,77,94,9.15,AO,1609967365
yaguajay,22.3272,-79.2378,72.41,68,70,9.89,CU,1609967344
kapit,2.0167,112.9333,72.48,94,90,0.63,MY,1609967370
nchelenge,-9.3451,28.734,72.55,80,70,5.57,ZM,1609967413
kiunga,-6.1219,141.2906,72.79,98,100,1.9,PG,1609967332
emerald,-23.5333,148.1667,73.0,94,22,6.93,AU,1609967330
marawi,7.9986,124.2928,73.0,94,57,5.01,PH,1609967357
san antonio,29.4241,-98.4936,73.4,49,40,17.22,US,1609967295
esmeraldas,-19.7625,-44.3139,73.4,83,40,4.7,BR,1609967365
malpe,13.35,74.7167,73.4,94,75,3.36,IN,1609967129
eyl,7.9803,49.8164,73.44,66,73,18.57,SO,1609967399
richards bay,-28.783,32.0377,73.49,76,91,15.21,ZA,1609967356
qui nhon,13.7667,109.2333,73.65,86,97,12.88,VN,1609967102
fuerte olimpo,-21.0415,-57.8738,73.72,96,100,0.51,PY,1609967432
guerrero negro,27.9769,-114.0611,73.83,24,0,10.2,MX,1609967338
bandarbeyla,9.4942,50.8122,73.99,67,87,19.91,SO,1609967375
kaeo,-35.1,173.7833,73.99,67,100,4.0,NZ,1609967358
candelaria,13.9311,121.4233,73.99,89,64,1.99,PH,1609967406
dingle,10.9995,122.6711,74.01,93,99,7.58,PH,1609967353
pringsewu,-5.3582,104.9744,74.14,93,100,1.32,ID,1609967445
santiago del estero,-27.7951,-64.2615,74.21,60,100,4.5,AR,1609967427
mollendo,-17.0231,-72.0147,74.26,65,59,8.34,PE,1609967451
chimbote,-9.0853,-78.5783,74.57,69,39,11.95,PE,1609967409
consolacion del sur,22.5047,-83.5136,74.66,51,0,6.73,CU,1609967404
vangaindrano,-23.35,47.6,74.66,89,6,5.21,MG,1609967183
cidreira,-30.1811,-50.2056,74.82,82,39,12.62,BR,1609967401
nosy varika,-20.5833,48.5333,74.84,85,95,4.5,MG,1609967416
pangkalanbuun,-2.6833,111.6167,74.95,95,95,1.9,ID,1609967382
cabo san lucas,22.8909,-109.9124,75.0,43,40,5.82,MX,1609967089
trenggalek,-8.05,111.7167,75.06,83,10,1.95,ID,1609967440
kidal,18.4411,1.4078,75.15,19,0,6.58,ML,1609967399
gondanglegi,-7.7479,112.0132,75.18,87,93,1.5,ID,1609967432
iquique,-20.2208,-70.1431,75.2,60,0,16.11,CL,1609967384
sal rei,16.1833,-22.9167,75.2,78,0,8.05,CV,1609967461
hilo,19.7297,-155.09,75.2,78,90,4.7,US,1609967242
honiara,-9.4333,159.95,75.2,94,20,5.82,SB,1609967140
pekan,3.4836,103.3996,75.2,94,40,4.7,MY,1609967126
padang,-0.9492,100.3543,75.2,94,75,2.24,ID,1609967339
bathsheba,13.2167,-59.5167,75.2,94,75,9.17,BB,1609967445
torres,-29.3353,-49.7269,75.29,85,34,9.46,BR,1609967188
bilma,18.6853,12.9164,75.36,18,0,6.33,NE,1609967353
inongo,-1.95,18.2667,75.36,87,67,1.97,CD,1609967343
huarmey,-10.0681,-78.1522,75.56,67,6,10.74,PE,1609967362
kumo,10.0447,11.2122,75.67,18,0,6.33,NG,1609967414
rabak,13.1809,32.74,75.81,27,0,11.79,SD,1609967443
sao filipe,14.8961,-24.4956,75.83,73,58,5.88,CV,1609967318
tra vinh,9.9347,106.3453,75.85,79,74,8.37,VN,1609967456
antalaha,-14.9003,50.2788,75.87,86,40,5.35,MG,1609967350
bonanza,14.0289,-84.591,75.88,82,70,2.73,NI,1609967325
yokadouma,3.5167,15.05,75.99,68,100,2.19,CM,1609967354
san patricio,28.017,-97.5169,75.99,78,90,14.99,US,1609967332
castro,-24.7911,-50.0119,76.01,75,78,5.79,BR,1609967336
manjacaze,-24.7117,33.8828,76.14,91,61,6.6,MZ,1609967431
bima,-8.4667,118.7167,76.17,83,99,1.63,ID,1609967405
sibolga,1.7427,98.7792,76.26,79,99,3.31,ID,1609967433
jardim,-21.4803,-56.1381,76.5,90,89,4.54,BR,1609967383
luangwa,-15.6167,30.4167,76.51,86,100,0.92,ZM,1609967392
bengkulu,-3.8004,102.2655,76.59,85,97,8.5,ID,1609967332
hambantota,6.1241,81.1185,76.6,85,54,5.73,LK,1609967318
bull savanna,17.8868,-77.5902,76.66,61,0,4.81,JM,1609967455
gbadolite,4.2833,21.0167,76.69,48,85,2.24,CD,1609967457
mogadishu,2.0371,45.3438,76.75,77,0,22.59,SO,1609967371
saint-joseph,-21.3667,55.6167,77.0,69,40,6.93,RE,1609967329
pisco,-13.7,-76.2167,77.0,73,0,11.41,PE,1609967346
souillac,-20.5167,57.5167,77.0,73,40,6.93,MU,1609967354
banjarmasin,-3.3244,114.591,77.0,94,20,1.12,ID,1609967406
neiafu,-18.65,-173.9833,77.0,94,90,6.93,TO,1609967331
kununurra,-15.7667,128.7333,77.0,100,100,4.7,AU,1609967054
uromi,6.7,6.3333,77.02,79,56,8.23,NG,1609967448
marang,5.2056,103.2059,77.02,88,100,7.92,MY,1609967398
kaduna,10.5222,7.4383,77.18,18,0,7.47,NG,1609967405
atuona,-9.8,-139.0333,77.22,78,7,16.35,PF,1609967322
rikitea,-23.1203,-134.9692,77.59,63,35,8.57,PF,1609967319
vanimo,-2.6741,141.3028,77.59,85,100,4.85,PG,1609967346
caravelas,-17.7125,-39.2481,77.79,75,83,7.54,BR,1609967441
pemangkat,1.1667,108.9667,77.83,85,71,2.86,ID,1609967423
zarate,-34.0981,-59.0286,78.01,61,0,5.01,AR,1609967287
canelones,-34.6444,-56.2886,78.01,69,40,11.41,UY,1609967388
papagaios,-19.4492,-44.7478,78.01,76,100,1.59,BR,1609967458
georgetown,5.4112,100.3354,78.01,88,40,3.36,MY,1609967136
tabou,4.423,-7.3528,78.22,86,100,8.57,CI,1609967423
vao,-22.6667,167.4833,78.31,80,48,18.57,NC,1609967355
moerai,-22.4333,-151.3333,78.48,78,99,15.1,PF,1609967439
gigmoto,13.7796,124.39,78.6,85,78,11.14,PH,1609967432
sao jose da coroa grande,-8.8978,-35.1478,78.66,75,62,9.86,BR,1609967410
cockburn town,21.4612,-71.1419,78.8,61,20,5.82,TC,1609967381
kapaa,22.0752,-159.319,78.8,65,20,12.75,US,1609967319
jizan,17.3333,42.6667,78.8,74,20,3.36,SA,1609967344
maceio,-9.6658,-35.7353,78.8,78,40,11.41,BR,1609967364
san pedro,14.35,121.0167,78.8,78,75,2.24,PH,1609967428
ahuimanu,21.4447,-157.8378,78.8,83,75,9.17,US,1609967375
marovoay,-16.1,46.6333,78.8,94,20,2.24,MG,1609967123
lakatoro,-16.0999,167.4164,78.8,94,40,6.29,VU,1609967366
nhulunbuy,-12.2333,136.7667,78.8,94,97,2.1,AU,1609967381
piacabucu,-10.4056,-36.4344,78.87,71,10,11.27,BR,1609967325
paracatu,-17.2222,-46.8747,79.0,79,100,1.99,BR,1609967410
chuy,-33.6971,-53.4616,79.16,74,51,14.12,UY,1609967382
port blair,11.6667,92.75,79.16,81,8,4.45,IN,1609967342
tizimin,21.15,-88.15,79.2,58,0,6.76,MX,1609967333
sorong,-0.8833,131.25,79.3,83,99,5.77,ID,1609967374
manggar,-2.8833,108.2667,79.38,86,96,10.13,ID,1609967343
arlit,18.7369,7.3853,79.41,17,0,10.31,NE,1609967443
kavaratti,10.5669,72.642,79.47,79,100,11.86,IN,1609967295
la asuncion,11.0333,-63.8628,79.77,80,40,12.71,VE,1609967099
inhambane,-23.865,35.3833,79.79,87,100,0.92,MZ,1609967355
bataipora,-22.2953,-53.2711,80.17,80,100,3.87,BR,1609967442
la orilla,17.9833,-102.2333,80.19,68,78,7.78,MX,1609967418
daru,-9.0763,143.2092,80.33,83,72,4.29,PG,1609967394
lazaro cardenas,17.9583,-102.2,80.35,68,77,7.72,MX,1609967341
bubaque,11.2833,-15.8333,80.35,74,0,16.11,GW,1609967426
geraldton,-28.7667,114.6,80.6,13,88,21.92,AU,1609967065
makakilo city,21.3469,-158.0858,80.6,54,1,8.05,US,1609967329
kahului,20.8947,-156.47,80.6,61,20,18.34,US,1609967388
paulista,-7.9408,-34.8731,80.6,65,75,6.93,BR,1609967433
sao joao da barra,-21.6403,-41.0511,80.6,74,0,13.87,BR,1609967228
touros,-5.1989,-35.4608,80.6,74,40,11.41,BR,1609967374
carnarvon,-24.8667,113.6333,80.6,74,90,4.7,AU,1609967327
bairiki,1.3292,172.9752,80.6,83,20,12.75,KI,1609967441
tambopata,-12.7333,-69.1833,80.6,83,75,3.36,PE,1609967324
port-gentil,-0.7193,8.7815,80.6,88,40,8.05,GA,1609967367
vaini,-21.2,-175.2,80.6,88,40,10.29,TO,1609967314
nacala,-14.5428,40.6728,80.62,84,4,8.88,MZ,1609967407
kavieng,-2.5744,150.7967,80.74,79,93,6.55,PG,1609967395
faanui,-16.4833,-151.75,80.78,75,18,11.59,PF,1609967378
ugoofaaru,5.6667,73.0,80.78,76,96,4.12,MV,1609967359
point fortin,10.1833,-61.6833,81.0,88,8,9.15,TT,1609967459
san juan,-31.5375,-68.5364,81.14,30,8,3.56,AR,1609967376
kedougou,12.5579,-12.1743,81.19,16,58,2.26,SN,1609967416
dhidhdhoo,6.8833,73.1,81.28,70,100,3.78,MV,1609967339
cururupu,-1.8283,-44.8683,81.32,72,38,5.53,BR,1609967202
luba,3.4568,8.5547,81.45,77,98,8.16,GQ,1609967414
angoche,-16.2325,39.9086,81.48,80,27,10.71,MZ,1609967412
dogondoutchi,13.6393,4.0287,81.86,14,0,7.58,NE,1609967430
hithadhoo,-0.6,73.0833,81.88,79,75,15.41,MV,1609967337
ghanzi,-21.5667,21.7833,81.9,46,94,3.67,BW,1609967395
el vigia,8.6219,-71.6506,81.91,63,45,2.42,VE,1609967354
muli,2.9167,73.5667,81.93,74,87,4.43,MV,1609967337
carutapera,-1.195,-46.02,82.0,73,100,7.45,BR,1609967396
sabang,5.8933,95.3214,82.0,79,71,16.75,ID,1609967360
florianopolis,-27.6146,-48.5012,82.0,94,75,17.22,BR,1609967395
lorengau,-2.0226,147.2712,82.04,77,100,6.73,PG,1609967368
guiratinga,-16.3494,-53.7583,82.06,68,98,7.85,BR,1609967434
butaritari,3.0707,172.7902,82.08,79,58,20.54,KI,1609967376
isangel,-19.55,169.2667,82.2,77,81,12.64,VU,1609967316
comodoro rivadavia,-45.8667,-67.5,82.4,30,40,20.8,AR,1609967438
mount isa,-20.7333,139.5,82.4,51,0,11.41,AU,1609967417
puerto ayora,-0.7393,-90.3518,82.4,58,0,17.22,EC,1609967330
minas,-34.3759,-55.2377,82.4,65,20,10.29,UY,1609967444
manta,-0.95,-80.7333,82.4,69,20,9.17,EC,1609967411
muisne,0.6,-80.0333,82.4,74,20,11.41,EC,1609967338
tefe,-3.3542,-64.7114,82.4,78,40,3.36,BR,1609967437
pemba,-12.974,40.5178,82.4,83,20,11.41,MZ,1609967350
cayenne,4.9333,-52.3333,82.4,83,100,8.05,GF,1609967388
anloga,5.7947,0.8973,82.4,88,20,12.75,GH,1609967417
tsabong,-26.0217,22.401,82.51,41,11,8.7,BW,1609967449
kieta,-6.2167,155.6333,82.58,67,56,3.67,PG,1609967379
sola,-13.8833,167.55,82.6,76,100,11.7,VU,1609967455
alta floresta,-9.8756,-56.0861,82.92,79,40,3.51,BR,1609967462
samarai,-10.6167,150.6667,83.25,76,99,11.07,PG,1609967373
cravo norte,6.3017,-70.2041,83.97,48,52,7.99,CO,1609967438
noumea,-22.2763,166.4572,84.0,74,20,1.12,NC,1609967185
san cristobal,7.7669,-72.225,84.2,54,40,11.41,VE,1609967186
tautira,-17.7333,-149.15,84.2,66,40,5.82,PF,1609967449
san andres,12.5847,-81.7006,84.2,66,40,6.93,CO,1609967347
pelotas,-31.7719,-52.3425,84.2,70,0,14.99,BR,1609967257
avarua,-21.2078,-159.775,84.2,74,46,10.29,CK,1609967323
itupiranga,-5.1347,-49.3267,84.2,74,75,12.75,BR,1609967452
dondo,-19.6094,34.7431,84.2,83,20,8.05,MZ,1609967062
porto novo,6.4965,2.6036,84.2,83,40,14.99,BJ,1609967315
quelimane,-17.8786,36.8883,84.2,89,0,11.41,MZ,1609967461
fonseca,10.8861,-72.8487,84.6,53,52,6.17,CO,1609967401
pocone,-16.2567,-56.6228,85.23,60,99,3.78,BR,1609967348
puerto lopez,4.0845,-72.956,85.84,46,100,11.45,CO,1609967458
karratha,-20.7377,116.8463,85.98,38,26,9.08,AU,1609967342
pasaco,13.9772,-90.2064,86.0,42,0,4.7,GT,1609967423
vila velha,-20.3297,-40.2925,86.0,58,0,18.34,BR,1609967438
arraial do cabo,-22.9661,-42.0278,86.0,74,0,11.41,BR,1609967420
sao miguel do araguaia,-13.275,-50.1628,86.34,65,50,4.32,BR,1609967342
young,-32.6833,-57.6333,87.01,39,1,4.0,UY,1609967406
tomatlan,19.9333,-105.25,87.58,37,51,7.65,MX,1609967412
machali,-34.1833,-70.6667,87.8,22,20,10.63,CL,1609967384
matelandia,-25.2408,-53.9964,87.8,61,40,8.05,BR,1609967457
barinas,8.6226,-70.2075,87.82,39,37,3.67,VE,1609967398
mathathane,-22.2687,28.7495,88.3,41,100,14.47,BW,1609967341
ciudad bolivar,8.1222,-63.5497,89.22,50,69,7.27,VE,1609967436
champerico,14.3,-91.9167,89.6,52,20,9.17,GT,1609967429
cantagallo,7.376,-73.9196,89.96,46,46,2.01,CO,1609967450
presidencia roque saenz pena,-26.7852,-60.4388,91.0,38,86,4.0,AR,1609967369
santa maria,-29.6842,-53.8069,91.4,46,40,8.05,BR,1609967324
